DeviceID,Trip,Time,GPS_Elevation,GPS_Fix_Quality,GPS_Hdop,GPS_Heading,GPS_Latitude,GPS_Longitude,GPS_Number_Satellites,GPS_Pdop,GPS_Speed,GPS_UTC_Time,GPS_Valid,DAS_Roll_Rate,DAS_Pitch_Rate,InVehicle_ABS_State,InVehicle_Brake_Status,InVehicle_Headlight_Status,InVehicle_Longitudinal_Accel,InVehicle_Longitudinal_Speed,InVehicle_PRNDL,InVehicle_Stability_Control_Status,InVehicle_Steering_Position,InVehicle_Throttle_Position,InVehicle_Traction_Control_Status,InVehicle_Turn_Signal_Left,InVehicle_Turn_Signal_Right,InVehicle_Wiper_Status,InVehicle_Yaw_Rate,LaneTrack_Crossing_Left,LaneTrack_Crossing_Right,LaneTrack_Distance_Left_Marker,LaneTrack_Distance_Right_Marker,LaneTrack_Lane_Width,LaneTrack_Probability_Left_Exist,LaneTrack_Probability_Right_Exists,LaneTrack_Shift_Aborted,LaneTrack_Shift_Left,LaneTrack_Shift_Right,LaneTrack_Shift_Successful,LaneTrack_Type_LeftLane_LeftMarker,LaneTrack_Type_LeftLane_RightMarker,LaneTrack_Type_RightLane_LeftMarker,LaneTrack_Type_RightLane_RightMarker,Video_Frame,Video_Front,Video_Overlay,Object_Left_F,Object_Right_F,Object_Left_B,Object_Right_B,DVISwitchState
10,1417759,0,237.393005,2,0.89,105.209999,42.305222,-83.707924,10,1.55,8.378959,1365722992900,1,0,-0.325195,2,15,0,-0.5298,8.194445,2,1,-4.5,0,2,0,0,0,-0.5,0,0,-1280,2997,3657.599854,336,609,0,0,0,0,0,0,1,0,NULL,NULL,NULL,NULL,NULL,NULL,NULL,NULL
10,1417759,100,237.393005,2,0.89,104.75,42.305218,-83.707916,10,1.55,8.272069,1365722993000,1,0,-2.601563,2,15,0,-0.9178,8.097222,2,1,-1.875,0,2,0,0,0,-0.5,0,0,-1193,2819,3657.599854,287,621,0,0,0,0,0,0,1,0,NULL,NULL,NULL,NULL,NULL,NULL,NULL,NULL
10,1417759,200,237.393005,2,0.89,104.699997,42.305218,-83.707901,10,1.55,8.238153,1365722993100,1,0,-2.926758,2,15,0,-0.8402,8.008333,2,1,1.875,0,2,0,0,0,0,0,0,-1182,2825,3657.599854,238,621,0,0,0,0,0,0,1,0,NULL,NULL,NULL,NULL,NULL,NULL,NULL,NULL
10,1417759,300,237.393005,2,0.89,104.919998,42.305214,-83.707893,10,1.55,8.256139,1365722993200,1,-0.650391,-2.276367,2,15,0,-0.6074,7.963889,2,1,7.09375,0,2,0,0,0,0.4,0,0,-1220,2822,3657.599854,122,629,0,0,0,0,0,0,1,0,NULL,NULL,NULL,NULL,NULL,NULL,NULL,NULL
10,1417759,400,237.393005,2,0.89,104.440002,42.305214,-83.707886,10,1.55,8.162611,1365722993300,1,-0.975586,0,2,15,0,-0.5298,7.944445,2,1,14,0,2,0,0,0,1.3,0,0,-1910,2813,3657.599854,19,629,0,0,0,0,1,0,1,0,NULL,NULL,NULL,NULL,NULL,NULL,NULL,NULL
10,1417759,500,237.393005,2,0.89,104.339996,42.30521,-83.707878,10,1.55,8.115334,1365722993400,1,0,1.300781,2,15,0,-0.5298,7.944445,2,1,14,0,2,0,0,0,1.3,0,0,-2438,2412,3657.599854,59,609,0,0,0,0,0,0,1,0,NULL,NULL,NULL,NULL,NULL,NULL,NULL,NULL
10,1417759,600,237.393005,2,0.89,104.629997,42.30521,-83.707863,10,1.55,7.984292,1365722993500,1,-0.975586,1.300781,2,15,0,-0.5298,7.925,2,1,21.5,0,2,0,0,0,2.2,0,0,-1864,3031,3657.599854,32,456,0,0,0,0,2,0,1,0,NULL,NULL,NULL,NULL,NULL,NULL,NULL,NULL
10,1417759,700,237.393005,2,0.89,104.889999,42.305206,-83.707855,10,1.55,8.034653,1365722993600,1,-0.325195,0.975586,2,15,0,-0.6074,7.866667,2,1,27.78125,0,2,0,0,0,3.7,0,0,-2174,3128,3657.599854,37,456,0,0,0,0,0,0,1,0,NULL,NULL,NULL,NULL,NULL,NULL,NULL,NULL
10,1417759,800,237.292999,2,0.89,104.849998,42.305206,-83.707848,10,1.55,7.947292,1365722993700,1,-0.650391,0.650391,2,15,0,-0.6074,7.819445,2,1,33.09375,0,2,0,0,0,4.4,0,0,-1930,3402,3657.599854,40,456,0,0,0,0,2,0,1,0,NULL,NULL,NULL,NULL,NULL,NULL,NULL,NULL
10,1417759,900,237.393005,2,0.89,105.800003,42.305202,-83.70784,10,1.55,7.744306,1365722993800,1,0,0.975586,2,15,0,-0.685,7.758333,2,1,38.6875,0,2,0,0,0,5.2,0,0,-1920,3616,3657.599854,32,456,0,0,0,0,2,0,1,0,NULL,NULL,NULL,NULL,NULL,NULL,NULL,NULL
10,1417759,1000,237.292999,2,0.89,105.709999,42.305202,-83.707832,10,1.55,7.909264,1365722993900,1,-0.975586,1.951172,2,15,0,-0.6074,7.705555,2,1,44.28125,0,2,0,0,0,5.5,0,0,-1742,3666,3657.599854,36,456,0,0,0,0,0,0,1,0,NULL,NULL,NULL,NULL,NULL,NULL,NULL,NULL
10,1417759,1100,237.393005,2,0.89,106.959999,42.305199,-83.707825,10,1.55,7.646153,1365722994000,1,-2.601563,1.625977,2,15,0,-0.685,7.655556,2,1,51.09375,0,2,0,0,0,6.7,0,0,-1915,3682,3657.599854,31,451,0,0,0,0,2,0,1,0,NULL,NULL,NULL,NULL,NULL,NULL,NULL,NULL
10,1417759,1200,237.393005,2,0.89,107.080002,42.305199,-83.707809,10,1.55,7.687264,1365722994100,1,-3.251953,0.650391,2,15,0,-0.4522,7.6,2,1,58.6875,0,2,0,0,0,7.8,0,0,-1777,3586,3657.599854,16,446,0,0,0,0,0,0,1,0,NULL,NULL,NULL,NULL,NULL,NULL,NULL,NULL
10,1417759,1300,237.393005,2,0.89,108.230003,42.305195,-83.707802,10,1.55,7.617375,1365722994200,1,-3.251953,0,2,15,0,-0.6074,7.530556,2,1,64.875,0,2,0,0,0,8.7,0,0,-1793,3474,3657.599854,15,446,0,0,0,0,0,0,1,0,NULL,NULL,NULL,NULL,NULL,NULL,NULL,NULL
10,1417759,1400,237.393005,2,0.89,107.389999,42.305195,-83.707794,10,1.55,7.479653,1365722994300,1,-2.926758,0,2,15,0,-0.5298,7.45,2,1,74.5,0,2,0,0,0,9.5,0,0,-1513,3454,3657.599854,15,459,0,0,0,0,0,0,1,0,NULL,NULL,NULL,NULL,NULL,NULL,NULL,NULL
10,1417759,1500,237.393005,2,0.89,109.260002,42.305191,-83.707787,10,1.55,7.540805,1365722994400,1,-2.276367,0,2,15,0,-0.4522,7.416667,2,1,82.59375,0,2,0,0,0,11,0,0,-1578,3389,3657.599854,4,459,0,0,0,0,0,0,1,0,NULL,NULL,NULL,NULL,NULL,NULL,NULL,NULL
10,1417759,1600,237.393005,2,0.89,110.150002,42.305187,-83.707779,10,1.55,7.460639,1365722994500,1,-2.926758,0.650391,2,15,0,-0.4522,7.408333,2,1,85.78125,0,2,0,0,0,12.2,0,0,-1578,3389,3657.599854,4,459,0,0,0,0,0,0,1,0,NULL,NULL,NULL,NULL,NULL,NULL,NULL,NULL
10,1417759,1700,237.393005,2,0.89,111.540001,42.305187,-83.707771,10,1.55,7.420556,1365722994600,1,-2.926758,0,2,15,0,-0.4522,7.366667,2,1,85.78125,0,2,0,0,0,12.5,0,0,-1578,3389,3657.599854,4,459,0,0,0,0,0,0,1,0,NULL,NULL,NULL,NULL,NULL,NULL,NULL,NULL
10,1417759,1800,237.393005,2,0.89,112.309998,42.305183,-83.707764,10,1.55,7.298764,1365722994700,1,-1.951172,-1.951172,2,15,0,-0.4522,7.291667,2,1,85.78125,0,2,0,0,0,11.9,0,0,-1300,3662,3657.599854,4,463,0,0,0,0,0,0,1,0,NULL,NULL,NULL,NULL,NULL,NULL,NULL,NULL
10,1417759,1900,237.492996,2,0.89,113.769997,42.30518,-83.707756,10,1.55,7.287458,1365722994800,1,-0.975586,-2.276367,2,0,0,-0.4522,7.225,2,1,85.78125,0,2,0,0,0,11.8,0,0,-1300,3662,3657.599854,4,463,0,0,0,0,0,0,1,0,NULL,NULL,NULL,NULL,NULL,NULL,NULL,NULL
10,1417759,2000,237.492996,2,0.89,115.339996,42.305176,-83.707748,10,1.55,7.445736,1365722994900,1,0,-1.951172,2,0,0,-0.4522,7.175,2,1,85.78125,0,2,0,0,0,11.7,0,0,-2204,2733,3657.599854,4,471,0,0,0,0,0,0,1,0,NULL,NULL,NULL,NULL,NULL,NULL,NULL,NULL
10,1417759,2100,237.492996,2,0.89,116.849998,42.305176,-83.707741,10,1.55,7.352722,1365722995000,1,-0.325195,0,2,0,0,-0.3746,7.166667,2,1,85.5,0,2,0,0,0,11.7,0,0,-2204,2733,3657.599854,4,471,0,0,0,0,0,0,1,0,NULL,NULL,NULL,NULL,NULL,NULL,NULL,NULL
10,1417759,2200,237.492996,2,0.89,117.68,42.305172,-83.707733,10,1.55,7.165667,1365722995100,1,-0.650391,1.300781,2,0,0,-0.3746,7.163889,2,1,85.1875,0,2,0,0,0,12,0,0,-2204,2733,3657.599854,4,471,0,0,0,0,0,0,1,0,NULL,NULL,NULL,NULL,NULL,NULL,NULL,NULL
10,1417759,2300,237.492996,2,0.89,119,42.305168,-83.707726,10,1.55,7.319833,1365722995200,1,-0.650391,0.650391,2,0,0,-0.4522,7.130556,2,1,85,0,2,0,0,0,11.9,0,0,-2204,2733,3657.599854,4,471,0,0,0,0,0,0,1,0,NULL,NULL,NULL,NULL,NULL,NULL,NULL,NULL
10,1417759,2400,237.492996,2,0.89,120.07,42.305164,-83.707718,10,1.55,7.019722,1365722995300,1,-0.650391,-0.650391,2,0,0,-0.4522,7.094444,2,1,84.375,0,2,0,0,0,11.4,0,0,-2956,2733,3657.599854,16,471,0,0,0,0,0,0,1,0,NULL,NULL,NULL,NULL,NULL,NULL,NULL,NULL
10,1417759,2500,237.492996,2,0.89,121,42.305161,-83.70771,10,1.55,7.092694,1365722995400,1,0,-1.625977,2,0,0,-0.3746,7.036111,2,1,83.28125,0,2,0,0,0,11.3,0,0,-3037,2733,3657.599854,16,471,0,0,0,0,0,0,1,0,NULL,NULL,NULL,NULL,NULL,NULL,NULL,NULL
10,1417759,2600,237.492996,2,0.89,122.489998,42.305157,-83.707703,10,1.55,7.094236,1365722995500,1,1.300781,-0.650391,2,0,0,-0.4522,6.994444,2,1,80.78125,0,2,0,0,0,11.4,0,0,-3286,2727,3657.599854,27,471,0,0,0,0,0,0,1,0,NULL,NULL,NULL,NULL,NULL,NULL,NULL,NULL
10,1417759,2700,237.492996,2,0.89,123.489998,42.305153,-83.707695,10,1.55,7.133806,1365722995600,1,0.975586,0.650391,2,0,0,-0.3746,6.997222,2,1,75.5,0,2,0,0,0,10.7,0,0,-2875,2727,3657.599854,16,471,0,0,0,0,0,0,1,0,NULL,NULL,NULL,NULL,NULL,NULL,NULL,NULL
10,1417759,2800,237.492996,2,0.89,125.269997,42.305149,-83.707687,10,1.55,7.078819,1365722995700,1,-0.650391,1.951172,2,0,0,-0.297,6.972222,2,1,66,0,2,0,0,0,9.9,0,0,-2727,2727,3657.599854,38,471,0,0,0,0,2,2,1,0,NULL,NULL,NULL,NULL,NULL,NULL,NULL,NULL
10,1417759,2900,237.492996,2,0.89,125.910004,42.305145,-83.70768,10,1.55,6.982208,1365722995800,1,0.325195,1.300781,2,0,0,-0.3746,6.944445,2,1,52.1875,0,2,0,0,0,9,0,0,-2179,3215,3657.599854,16,422,0,0,0,0,0,0,1,0,NULL,NULL,NULL,NULL,NULL,NULL,NULL,NULL
10,1417759,3000,237.492996,2,0.89,126.510002,42.305141,-83.707672,10,1.55,6.922083,1365722995900,1,1.625977,0,2,0,0,-0.297,6.888889,2,1,41.1875,0,2,0,0,0,6.7,0,0,-2799,3215,3657.599854,56,410,0,0,0,0,0,0,1,0,NULL,NULL,NULL,NULL,NULL,NULL,NULL,NULL
10,1417759,3100,237.492996,2,0.89,127.139999,42.305138,-83.707664,10,1.55,6.883028,1365722996000,1,0.975586,-0.975586,2,0,0,-0.297,6.852778,2,1,31.5,1,2,0,0,0,4.9,0,0,-2656,3327,3657.599854,56,395,0,0,0,0,0,0,1,0,NULL,NULL,NULL,NULL,NULL,NULL,NULL,NULL
10,1417759,3200,237.492996,2,0.89,129,42.305134,-83.707657,10,1.55,6.993,1365722996100,1,0,-0.975586,2,0,0,-0.297,6.822222,2,1,19.1875,1,2,0,0,0,4.3,0,0,-2550,3423,3657.599854,64,376,0,0,0,0,0,0,1,0,NULL,NULL,NULL,NULL,NULL,NULL,NULL,NULL
10,1417759,3300,237.492996,2,0.89,128.630005,42.30513,-83.707657,10,1.55,6.896389,1365722996200,1,0.975586,0,2,0,0,-0.297,6.794445,2,1,5.875,1,2,0,0,0,3.2,0,0,-2428,3454,3657.599854,94,361,0,0,0,0,0,0,1,0,NULL,NULL,NULL,NULL,NULL,NULL,NULL,NULL
10,1417759,3400,237.492996,2,0.89,128.649994,42.305126,-83.707649,10,1.55,6.916945,1365722996300,1,1.300781,0.650391,2,0,0,-0.297,6.794445,2,1,-4.5,1,2,0,0,0,0.3,0,0,-2402,3469,3657.599854,31,313,0,0,0,0,0,0,1,0,NULL,NULL,NULL,NULL,NULL,NULL,NULL,NULL
10,1417759,3500,237.492996,2,0.89,129.210007,42.305122,-83.707642,10,1.55,6.843972,1365722996400,1,0.975586,0.650391,2,0,0,-0.297,6.763889,2,1,-10,1,2,0,0,0,-0.5,0,0,-2397,3469,3657.599854,4,243,0,0,0,0,0,0,1,0,NULL,NULL,NULL,NULL,NULL,NULL,NULL,NULL
10,1417759,3600,237.593002,2,0.89,129.509995,42.305119,-83.707634,10,1.55,6.78025,1365722996500,1,1.625977,0.325195,2,0,0,-0.297,6.769444,2,1,-24.5,1,2,0,0,0,-1,0,0,-2433,3469,3657.599854,12,190,0,0,0,0,0,0,1,0,NULL,NULL,NULL,NULL,NULL,NULL,NULL,NULL
10,1417759,3700,237.593002,2,0.89,129.279999,42.305115,-83.707626,10,1.55,6.802861,1365722996600,1,2.601563,0,2,0,0,-0.297,6.713889,2,1,-43.09375,1,2,0,0,0,-3.1,0,0,-2433,3469,3657.599854,4,127,0,0,0,0,0,0,1,0,NULL,NULL,NULL,NULL,NULL,NULL,NULL,NULL
10,1417759,3800,237.593002,2,0.89,128.910004,42.305111,-83.707619,10,1.55,6.7895,1365722996700,1,2.276367,-0.325195,2,0,0,-0.2194,6.669445,2,1,-63.09375,1,2,0,0,0,-5.3,0,0,-5024,4389,9413.238281,6,10,0,0,0,0,0,0,0,0,NULL,NULL,NULL,NULL,NULL,NULL,NULL,NULL
10,1417759,3900,237.593002,2,0.89,129.300003,42.305107,-83.707619,10,1.55,6.708819,1365722996800,1,2.276367,-1.625977,2,0,0,-0.3746,6.641667,2,1,-82.78125,2,2,0,0,0,-8,0,0,-5024,4460,9484.355469,6,16,0,0,0,0,0,0,0,0,NULL,NULL,NULL,NULL,NULL,NULL,NULL,NULL
10,1417759,4000,237.593002,2,0.89,128.210007,42.305103,-83.707611,10,1.55,6.736569,1365722996900,1,2.926758,-1.951172,2,0,0,-0.3746,6.611111,2,1,-102.5,3,2,0,0,0,-11.1,0,0,-4871,4958,9829.795898,6,12,0,0,0,0,0,0,0,0,NULL,NULL,NULL,NULL,NULL,NULL,NULL,NULL
10,1417759,4100,237.492996,2,0.89,127.769997,42.305099,-83.707603,10,1.55,6.684153,1365722997000,1,2.926758,-1.951172,2,0,0,-0.3746,6.613889,2,1,-114.375,3,2,0,0,0,-12.6,0,0,-4521,5267,9789.158203,8,4,0,0,0,0,0,0,0,0,NULL,NULL,NULL,NULL,NULL,NULL,NULL,NULL
10,1417759,4200,237.593002,2,0.89,126.190002,42.305096,-83.707596,10,1.55,6.691347,1365722997100,1,0.975586,-1.625977,2,0,0,-0.297,6.622222,2,1,-120.28125,3,2,0,0,0,-14.1,0,0,-4516,5267,9784.078125,8,4,0,0,0,0,0,0,0,0,NULL,NULL,NULL,NULL,NULL,NULL,NULL,NULL
10,1417759,4300,237.593002,1,0.89,125.290001,42.305092,-83.707588,10,1.55,6.589597,1365722997200,1,0.325195,-1.625977,2,0,0,-0.297,6.591667,2,1,-126.09375,3,2,0,0,0,-14.6,0,0,-4424,8153,12578.079102,8,6,0,0,0,0,0,0,0,0,NULL,NULL,NULL,NULL,NULL,NULL,NULL,NULL
10,1417759,4400,237.593002,1,0.89,122.790001,42.305092,-83.707581,10,1.55,6.584972,1365722997300,1,0,-1.300781,2,0,0,-0.2194,6.547222,2,1,-131.78125,5,2,0,0,0,-15.7,0,0,-4323,8153,12476.478516,8,4,0,0,0,0,0,0,0,0,NULL,NULL,NULL,NULL,NULL,NULL,NULL,NULL
10,1417759,4500,237.492996,1,0.89,121.419998,42.305088,-83.707573,10,1.55,6.631222,1365722997400,1,0.975586,-0.650391,2,0,0,-0.2194,6.552778,2,1,-139.5,7,2,0,0,0,-16.1,0,0,-9108,-2082,7025.635742,12,6,0,0,0,0,0,0,0,0,NULL,NULL,NULL,NULL,NULL,NULL,NULL,NULL
10,1417759,4600,237.593002,1,0.89,119.709999,42.305084,-83.707565,10,1.55,6.646125,1365722997500,1,0.650391,-0.650391,2,0,0,-0.297,6.608333,2,1,-144.375,8,2,0,0,0,-17.299999,0,0,-10292,6705,16997.673828,6,8,0,0,0,0,0,0,0,0,NULL,NULL,NULL,NULL,NULL,NULL,NULL,NULL
10,1417759,4700,237.593002,1,0.89,118.599998,42.30508,-83.707558,10,1.55,6.627625,1365722997600,1,0.325195,-0.325195,2,0,0,-0.0642,6.619444,2,1,-149.28125,9,2,0,0,0,-17.700001,0,0,-10241,4378,14620.230469,8,6,0,0,0,0,0,0,0,0,NULL,NULL,NULL,NULL,NULL,NULL,NULL,NULL
10,1417759,4800,237.593002,1,0.89,116.739998,42.30508,-83.70755,10,1.55,6.630708,1365722997700,1,0,-0.650391,2,0,0,-0.1418,6.663889,2,1,-153.6875,9,2,0,0,0,-17.799999,0,0,-10312,4409,14721.831055,12,12,0,0,0,0,0,0,0,0,NULL,NULL,NULL,NULL,NULL,NULL,NULL,NULL
10,1417759,4900,237.492996,1,0.89,114.849998,42.305077,-83.707542,10,1.55,6.615292,1365722997800,1,1.300781,-0.650391,2,0,0,-0.1418,6.663889,2,1,-153.6875,9,2,0,0,0,-17.799999,0,0,-10276,3444,13721.072266,12,16,0,0,0,0,0,0,0,0,NULL,NULL,NULL,NULL,NULL,NULL,NULL,NULL
10,1417759,5000,237.492996,1,0.89,113.040001,42.305077,-83.707535,10,1.55,6.667708,1365722997900,1,2.276367,0,2,0,0,-0.0642,6.744444,2,1,-156.59375,10,2,0,0,0,-19.1,0,0,-10398,2545,12943.833008,12,16,0,0,0,0,0,0,0,0,NULL,NULL,NULL,NULL,NULL,NULL,NULL,NULL
10,1417759,5100,237.492996,1,0.89,111.160004,42.305073,-83.707527,10,1.55,6.675931,1365722998000,1,2.276367,0,2,0,0,0.091,6.711111,2,1,-156.875,10,2,0,0,0,-19.299999,0,0,-10220,2651,12872.712891,12,16,0,0,0,0,0,0,0,0,NULL,NULL,NULL,NULL,NULL,NULL,NULL,NULL
10,1417759,5200,237.492996,1,0.89,109.669998,42.305073,-83.70752,10,1.55,6.695458,1365722998100,1,1.951172,0,2,0,0,0.1686,6.761111,2,1,-156.5,11,2,0,0,0,-19.299999,0,0,-10129,4099,14229.072266,12,16,0,0,0,0,0,0,0,0,NULL,NULL,NULL,NULL,NULL,NULL,NULL,NULL
10,1417759,5300,237.492996,1,0.89,107.93,42.305069,-83.707512,10,1.55,6.74993,1365722998200,1,2.601563,-0.325195,2,0,0,0.2462,6.816667,2,1,-155.6875,13,2,0,0,0,-19.200001,0,0,-8829,4531,13360.391602,16,16,0,0,0,0,0,0,0,0,NULL,NULL,NULL,NULL,NULL,NULL,NULL,NULL
10,1417759,5400,237.492996,1,0.89,105.220001,42.305069,-83.707504,10,1.55,6.771514,1365722998300,1,3.251953,-0.975586,2,0,0,0.4014,6.869444,2,1,-153.78125,13,2,0,0,0,-20.1,0,0,-7660,3759,11419.832031,6,12,0,0,0,0,0,0,0,0,NULL,NULL,NULL,NULL,NULL,NULL,NULL,NULL
10,1417759,5500,237.492996,1,0.89,103.809998,42.305069,-83.707497,10,1.55,6.853736,1365722998400,1,1.625977,-1.951172,2,0,0,0.5566,6.947222,2,1,-150.5,13,2,0,0,0,-20.299999,0,0,-7660,3759,11419.832031,6,12,0,0,0,0,0,0,0,0,NULL,NULL,NULL,NULL,NULL,NULL,NULL,NULL
10,1417759,5600,237.492996,1,0.89,102.07,42.305065,-83.707489,10,1.55,6.938528,1365722998500,1,1.625977,-2.926758,2,0,0,0.5566,6.994444,2,1,-147.09375,13,2,0,0,0,-19.5,0,0,-9245,8422,17668.230469,16,14,0,0,0,0,0,0,0,0,NULL,NULL,NULL,NULL,NULL,NULL,NULL,NULL
10,1417759,5700,237.492996,1,0.89,99.889999,42.305065,-83.707481,10,1.55,7.034625,1365722998600,1,2.601563,-1.625977,2,0,0,0.6342,7.061111,2,1,-143.6875,14,2,0,0,0,-19,0,0,-9616,8976,18592.791016,16,12,0,0,0,0,0,0,0,0,NULL,NULL,NULL,NULL,NULL,NULL,NULL,NULL
10,1417759,5800,237.492996,1,0.89,97.580002,42.305065,-83.707474,10,1.55,7.137403,1365722998700,1,1.951172,-0.325195,2,0,0,0.6342,7.186111,2,1,-138.375,15,2,0,0,0,-19,0,0,-9270,9712,18983.949219,16,6,0,0,0,0,0,0,0,0,NULL,NULL,NULL,NULL,NULL,NULL,NULL,NULL
10,1417759,5900,237.492996,1,0.89,95.639999,42.305065,-83.707466,10,1.55,7.238125,1365722998800,1,0,0,2,0,0,0.7894,7.288889,2,1,-129.5,15,2,0,0,0,-17.799999,0,0,-9032,2656,11689.073242,16,16,0,0,0,0,0,0,0,0,NULL,NULL,NULL,NULL,NULL,NULL,NULL,NULL
10,1417759,6000,237.492996,1,0.89,94.220001,42.305065,-83.707458,10,1.55,7.272042,1365722998900,1,-0.325195,0,2,0,0,0.867,7.4,2,1,-118.1875,15,2,0,0,0,-16.799999,0,0,-8671,9387,18059.396484,16,6,0,0,0,0,0,0,0,0,NULL,NULL,NULL,NULL,NULL,NULL,NULL,NULL
10,1417759,6100,237.492996,1,0.89,91.599998,42.305065,-83.707443,10,1.55,7.412847,1365722999000,1,0.975586,-1.300781,2,0,0,0.9446,7.511111,2,1,-103.78125,15,2,0,0,0,-15.6,0,0,-5593,2448,8041.637695,6,4,0,0,0,0,0,0,0,0,NULL,NULL,NULL,NULL,NULL,NULL,NULL,NULL
10,1417759,6200,237.492996,1,0.89,90.269997,42.305065,-83.707436,10,1.55,7.457556,1365722999100,1,0.325195,-2.926758,2,0,0,1.0222,7.580555,2,1,-89.5,15,2,0,0,0,-14.5,0,0,-9286,2123,11409.673828,16,14,0,0,0,0,0,0,0,0,NULL,NULL,NULL,NULL,NULL,NULL,NULL,NULL
10,1417759,6300,237.492996,1,0.89,88.910004,42.305065,-83.707428,10,1.55,7.660028,1365722999200,1,1.625977,-2.601563,2,0,0,0.867,7.683333,2,1,-73.875,15,2,0,0,0,-11.8,0,0,-5394,2453,7848.595703,6,16,0,0,0,0,0,0,0,0,NULL,NULL,NULL,NULL,NULL,NULL,NULL,NULL
10,1417759,6400,237.492996,1,0.89,87.459999,42.305065,-83.70742,10,1.55,7.787986,1365722999300,1,1.300781,-2.601563,2,0,0,0.867,7.816667,2,1,-57.1875,14,2,0,0,0,-10,0,0,-9814,2616,12430.754883,16,16,0,0,0,0,0,0,0,0,NULL,NULL,NULL,NULL,NULL,NULL,NULL,NULL
10,1417759,6500,237.492996,1,0.89,86.370003,42.305065,-83.707413,10,1.55,7.928792,1365722999400,1,-0.325195,-1.951172,2,0,0,1.0222,7.963889,2,1,-41.5,14,2,0,0,0,-7.6,0,0,-5257,1214,6471.916016,32,6,0,0,0,0,0,0,0,0,NULL,NULL,NULL,NULL,NULL,NULL,NULL,NULL
10,1417759,6600,237.492996,1,0.89,85.709999,42.305069,-83.707397,10,1.55,8.0475,1365722999500,1,0.650391,-0.325195,2,0,0,0.867,8.072222,2,1,-27.5,14,2,0,0,0,-5.3,0,0,-5257,1214,6471.916016,32,6,0,0,0,0,0,0,0,0,NULL,NULL,NULL,NULL,NULL,NULL,NULL,NULL
10,1417759,6700,237.393005,1,0.89,84.620003,42.305069,-83.70739,10,1.55,8.18625,1365722999600,1,0.975586,0.325195,2,0,0,0.7894,8.188889,2,1,-16.875,14,2,0,0,0,-3.6,0,0,-4963,4719,9682.475586,32,16,0,0,0,0,0,0,0,0,NULL,NULL,NULL,NULL,NULL,NULL,NULL,NULL
10,1417759,6800,237.393005,1,0.89,84.419998,42.305069,-83.707382,10,1.55,8.1955,1365722999700,1,1.625977,1.625977,2,0,0,0.7894,8.327778,2,1,-7.375,14,2,0,0,0,-2.3,0,0,-4963,4373,9337.036133,4,16,0,0,0,0,0,0,0,0,NULL,NULL,NULL,NULL,NULL,NULL,NULL,NULL
10,1417759,6900,237.393005,1,0.89,84.400002,42.305069,-83.707367,10,1.55,8.335278,1365722999800,1,0,0,2,0,0,0.7118,8.430555,2,1,1.5,14,2,0,0,0,-0.6,0,0,-4607,4460,3657.599854,64,16,0,0,0,0,2,0,0,0,NULL,NULL,NULL,NULL,NULL,NULL,NULL,NULL
10,1417759,7000,237.393005,1,0.89,84.099998,42.305069,-83.707359,10,1.55,8.414416,1365722999900,1,-1.625977,-1.625977,2,0,0,0.7118,8.536111,2,1,11,14,2,0,0,0,0.7,0,0,-4592,4099,8691.875977,78,23,0,0,0,0,0,0,0,0,NULL,NULL,NULL,NULL,NULL,NULL,NULL,NULL
10,1417759,7100,237.292999,1,0.89,84.099998,42.305073,-83.707352,10,1.55,8.563444,1365723000000,1,-0.975586,0.975586,2,0,0,0.6342,8.652778,2,1,19.78125,14,2,0,0,0,2,0,0,-4592,4099,8691.875977,78,23,0,0,0,0,0,0,0,0,NULL,NULL,NULL,NULL,NULL,NULL,NULL,NULL
10,1417759,7200,237.292999,1,0.89,83.589996,42.305073,-83.707336,10,1.55,8.716583,1365723000100,1,-0.325195,5.203125,2,0,0,0.479,8.836111,2,1,31.5,14,2,0,0,0,3.4,0,0,-4597,3342,7940.037598,16,6,0,0,0,0,0,0,0,0,NULL,NULL,NULL,NULL,NULL,NULL,NULL,NULL
10,1417759,7300,237.292999,1,0.89,84.5,42.305073,-83.707329,10,1.55,8.727375,1365723000200,1,-0.325195,7.154297,2,0,0,0.6342,8.927778,2,1,41.78125,14,2,0,0,0,5,0,0,-4124,3164,3657.599854,16,23,0,0,0,0,0,0,2,0,NULL,NULL,NULL,NULL,NULL,NULL,NULL,NULL
10,1417759,7400,237.292999,1,0.89,84.510002,42.305073,-83.707314,10,1.55,8.701167,1365723000300,1,-1.951172,3.577148,2,0,0,0.6342,9.002778,2,1,50.5,14,2,0,0,0,7.2,0,0,-4302,2966,3657.599854,16,27,0,0,0,0,0,0,1,0,NULL,NULL,NULL,NULL,NULL,NULL,NULL,NULL
10,1417759,7500,237.292999,1,0.89,85.25,42.305073,-83.707306,10,1.55,8.799319,1365723000400,1,-1.625977,-1.625977,2,0,0,0.4014,9.038889,2,1,56.28125,14,2,0,0,0,8.8,0,0,-5572,1549,3657.599854,16,43,0,0,0,0,0,0,1,0,NULL,NULL,NULL,NULL,NULL,NULL,NULL,NULL
10,1417759,7600,237.192993,1,0.89,86.07,42.305073,-83.707298,10,1.55,8.969417,1365723000500,1,-0.650391,-3.902344,2,0,0,0.5566,9.069445,2,1,57.59375,14,2,0,0,0,9.4,0,0,-3413,1682,5095.992676,24,38,0,0,0,0,2,0,1,0,NULL,NULL,NULL,NULL,NULL,NULL,NULL,NULL
10,1417759,7700,237.192993,1,0.89,86.529999,42.305077,-83.707283,10,1.55,9.142597,1365723000600,1,-0.650391,-3.251953,2,0,0,0.6342,9.175,2,1,56.375,14,2,0,0,0,9.3,0,0,-3662,2285,5948.676758,31,45,0,0,0,0,1,0,1,0,NULL,NULL,NULL,NULL,NULL,NULL,NULL,NULL
10,1417759,7800,237.192993,1,0.89,88.029999,42.305077,-83.707275,10,1.55,9.33325,1365723000700,1,-2.276367,-1.625977,2,0,0,0.6342,9.261111,2,1,55.375,14,2,0,0,0,10,0,0,-3119,2296,5415.272461,48,49,0,0,0,0,0,0,0,0,NULL,NULL,NULL,NULL,NULL,NULL,NULL,NULL
10,1417759,7900,237.192993,1,0.89,88.639999,42.305077,-83.70726,10,1.55,9.38875,1365723000800,1,-1.951172,1.300781,2,0,0,0.7894,9.375,2,1,53.59375,14,2,0,0,0,9.8,0,0,-3637,2275,3657.599854,16,119,0,0,0,0,0,0,0,0,NULL,NULL,NULL,NULL,NULL,NULL,NULL,NULL
10,1417759,8000,237.192993,1,0.89,89.349998,42.305077,-83.707253,10,1.55,9.40725,1365723000900,1,-1.625977,1.300781,2,0,0,0.7894,9.488889,2,1,51.6875,14,2,0,0,0,9,0,0,-3571,2184,3657.599854,16,127,0,0,0,0,0,0,0,0,NULL,NULL,NULL,NULL,NULL,NULL,NULL,NULL
10,1417759,8100,237.192993,1,0.89,90.470001,42.305077,-83.707237,10,1.55,9.405708,1365723001000,1,-2.276367,0,2,0,0,0.6342,9.583333,2,1,51.78125,14,2,0,0,0,9.2,0,0,-3230,2611,5841.998535,64,138,0,0,0,0,0,0,0,0,NULL,NULL,NULL,NULL,NULL,NULL,NULL,NULL
10,1417759,8200,237.192993,1,0.89,91.489998,42.305073,-83.70723,10,1.55,9.514653,1365723001100,1,-1.951172,-0.325195,2,0,0,0.7118,9.641666,2,1,51.59375,15,2,0,0,0,9.5,0,0,-3159,2682,5841.999512,82,170,0,0,0,0,0,0,0,0,NULL,NULL,NULL,NULL,NULL,NULL,NULL,NULL
10,1417759,8300,237.192993,1,0.89,91.949997,42.305073,-83.707214,10,1.55,9.704278,1365723001200,1,-0.975586,-0.325195,2,0,0,0.6342,9.763889,2,1,49.78125,15,2,0,0,0,9.4,0,0,-3068,3180,6248.398926,145,201,0,0,0,0,2,0,0,0,NULL,NULL,NULL,NULL,NULL,NULL,NULL,NULL
10,1417759,8400,237.192993,1,0.89,92.830002,42.305073,-83.707207,10,1.55,9.791639,1365723001300,1,-0.325195,-0.325195,2,0,0,0.6342,9.858334,2,1,46.28125,15,2,0,0,0,9.3,0,0,-3347,2697,6045.195801,145,238,0,0,0,0,2,0,0,0,NULL,NULL,NULL,NULL,NULL,NULL,NULL,NULL
10,1417759,8500,237.192993,1,0.89,94.209999,42.305073,-83.707191,10,1.55,9.863584,1365723001400,1,0,-1.300781,2,0,0,0.6342,9.947222,2,1,42.1875,15,2,0,0,0,8.3,0,0,-3022,945,3967.697998,224,218,0,0,0,0,0,0,2,0,NULL,NULL,NULL,NULL,NULL,NULL,NULL,NULL
10,1417759,8600,237.192993,1,0.89,95.239998,42.305073,-83.707176,10,1.55,9.957625,1365723001500,1,0.325195,-1.951172,2,0,0,0.6342,10.041667,2,1,38.875,15,2,0,0,0,7.5,0,0,-2981,666,3648.363281,256,256,0,0,0,0,0,0,2,0,NULL,NULL,NULL,NULL,NULL,NULL,NULL,NULL
10,1417759,8700,237.192993,1,0.89,95.699997,42.305069,-83.707169,10,1.55,10.133889,1365723001600,1,0.650391,-0.975586,2,0,0,0.6342,10.127778,2,1,36.28125,15,2,0,0,0,7.3,0,0,-2900,716,3616.843018,256,256,0,0,0,0,0,0,2,0,NULL,NULL,NULL,NULL,NULL,NULL,NULL,NULL
10,1417759,8800,237.192993,1,0.89,96.540001,42.305069,-83.707153,10,1.55,10.192472,1365723001700,1,0,0.325195,2,0,0,0.7118,10.272223,2,1,33.78125,16,2,0,0,0,6.5,0,0,-2733,840,3573.487549,273,256,0,0,0,0,0,0,2,0,NULL,NULL,NULL,NULL,NULL,NULL,NULL,NULL
10,1417759,8900,237.192993,1,0.89,97.68,42.305069,-83.707146,10,1.55,10.206347,1365723001800,1,0.975586,1.951172,2,0,0,0.7894,10.369445,2,1,31.59375,16,2,0,0,0,6.4,0,0,-2600,961,3562.911865,337,256,0,0,0,0,0,0,2,0,NULL,NULL,NULL,NULL,NULL,NULL,NULL,NULL
10,1417759,9000,237.093002,1,0.89,98.370003,42.305065,-83.70713,10,1.55,10.403681,1365723001900,1,0.325195,1.951172,2,0,0,0.7894,10.505555,2,1,31.375,16,2,0,0,0,5.7,0,0,-3288,750,4039.1521,275,256,0,0,0,0,0,0,2,0,NULL,NULL,NULL,NULL,NULL,NULL,NULL,NULL
10,1417759,9100,237.093002,1,0.89,98.529999,42.305065,-83.707115,10,1.55,10.320945,1365723002000,1,-0.975586,1.300781,2,0,0,0.7894,10.575,2,1,32,17,2,0,0,0,5.9,0,0,-3651,387,4039.1521,259,256,0,0,0,0,0,0,2,0,NULL,NULL,NULL,NULL,NULL,NULL,NULL,NULL
10,1417759,9200,237.093002,1,0.89,99.389999,42.305061,-83.707108,10,1.55,10.51725,1365723002100,1,-2.276367,-0.650391,2,0,0,0.867,10.691667,2,1,32.875,17,2,0,0,0,6.2,0,0,-2326,2616,4942.837891,256,80,0,0,0,0,0,0,0,0,NULL,NULL,NULL,NULL,NULL,NULL,NULL,NULL
10,1417759,9300,237.093002,1,0.89,99.010002,42.305061,-83.707092,10,1.55,10.623625,1365723002200,1,-1.951172,-1.625977,2,0,0,0.7894,10.766666,2,1,33.375,17,2,0,0,0,6.3,0,0,-2412,2489,3657.599854,512,112,0,0,0,0,0,0,0,0,NULL,NULL,NULL,NULL,NULL,NULL,NULL,NULL
10,1417759,9400,236.992996,1,0.89,99.639999,42.305061,-83.707077,10,1.55,10.797833,1365723002300,1,-1.625977,-0.975586,2,0,0,0.9446,10.880555,2,1,33.5,17,2,0,0,0,6.4,0,0,-2301,1326,3628.067871,1024,256,0,0,0,0,0,0,2,0,NULL,NULL,NULL,NULL,NULL,NULL,NULL,NULL
10,1417759,9500,236.992996,1,0.89,100.82,42.305058,-83.707069,10,1.55,10.878,1365723002400,1,-0.975586,0,2,0,0,1.0222,11.022223,2,1,33.5,17,2,0,0,0,6.8,0,0,-2225,1429,3654.861572,1024,256,0,0,0,0,0,0,2,0,NULL,NULL,NULL,NULL,NULL,NULL,NULL,NULL
10,1417759,9600,236.992996,1,0.89,101.010002,42.305058,-83.707054,10,1.55,11.048611,1365723002500,1,-0.650391,-0.325195,2,0,0,0.867,11.108334,2,1,33.5,16,2,0,0,0,6.4,0,0,-2118,1543,3661.55542,1024,256,0,0,0,0,0,0,2,0,NULL,NULL,NULL,NULL,NULL,NULL,NULL,NULL
10,1417759,9700,236.992996,1,0.89,101.419998,42.305054,-83.707039,10,1.55,11.116959,1365723002600,1,0,0,2,0,0,0.7894,11.225,2,1,33.1875,16,2,0,0,0,6.7,0,0,-2087,2092,3657.599854,1024,272,0,0,0,0,0,0,1,0,NULL,NULL,NULL,NULL,NULL,NULL,NULL,NULL
10,1417759,9800,236.992996,1,0.89,102.660004,42.30505,-83.707024,10,1.55,11.202264,1365723002700,1,0.650391,0.650391,2,0,0,0.867,11.344444,2,1,33,16,2,0,0,0,6.3,0,0,-2042,1844,3886.198242,1024,28,0,0,0,0,0,0,2,0,NULL,NULL,NULL,NULL,NULL,NULL,NULL,NULL
10,1417759,9900,236.992996,1,0.89,103.099998,42.30505,-83.707016,10,1.55,11.328681,1365723002800,1,0,0.975586,2,0,0,0.7894,11.480556,2,1,33,16,2,0,0,0,6.8,0,0,-1915,1818,3733.798584,1024,58,0,0,0,0,0,0,2,0,NULL,NULL,NULL,NULL,NULL,NULL,NULL,NULL
10,1417759,10000,236.992996,1,0.89,103.309998,42.305046,-83.707001,10,1.55,11.43968,1365723002900,1,0,1.300781,2,0,0,0.7894,11.566667,2,1,33,16,2,0,0,0,6.4,0,0,-1620,1986,3606.798584,1024,64,0,0,0,0,0,0,0,0,NULL,NULL,NULL,NULL,NULL,NULL,NULL,NULL
10,1417759,10100,236.992996,1,0.89,104.099998,42.305042,-83.706985,10,1.55,11.446875,1365723003000,1,0.325195,1.300781,2,0,0,0.6342,11.658334,2,1,32.875,16,2,0,0,0,6.4,0,0,-1625,1915,3540.758057,1024,89,0,0,0,0,0,0,0,0,NULL,NULL,NULL,NULL,NULL,NULL,NULL,NULL
10,1417759,10200,236.992996,1,0.89,105.230003,42.305042,-83.70697,10,1.55,11.628278,1365723003100,1,0.325195,0.650391,2,0,0,0.7118,11.758333,2,1,32.875,15,2,0,0,0,6.8,0,0,-1640,1864,3505.199463,1024,129,0,0,0,0,0,0,1,0,NULL,NULL,NULL,NULL,NULL,NULL,NULL,NULL
10,1417759,10300,236.992996,1,0.89,105.809998,42.305038,-83.706963,10,1.55,11.715125,1365723003200,1,0,0,2,0,0,0.7118,11.844444,2,1,32.78125,15,2,0,0,0,7,0,0,-1701,1925,3627.119629,1024,145,0,0,0,0,0,0,1,0,NULL,NULL,NULL,NULL,NULL,NULL,NULL,NULL
10,1417759,10400,236.992996,1,0.89,106.300003,42.305035,-83.706947,10,1.55,11.795292,1365723003300,1,0,0.325195,2,0,0,0.7118,11.844444,2,1,32.78125,15,2,0,0,0,7,0,0,-1884,1701,3586.479248,1024,228,0,0,0,0,0,0,1,0,NULL,NULL,NULL,NULL,NULL,NULL,NULL,NULL
10,1417759,10500,236.992996,1,0.89,106.82,42.305031,-83.706932,10,1.55,11.884194,1365723003400,1,1.300781,0.650391,2,0,0,0.6342,11.941667,2,1,31.375,15,2,0,0,0,6.7,0,0,-1849,1661,3510.279297,1024,375,0,0,0,0,0,0,1,0,NULL,NULL,NULL,NULL,NULL,NULL,NULL,NULL
10,1417759,10600,236.992996,1,0.89,107.82,42.305027,-83.706917,10,1.55,11.991597,1365723003500,1,1.951172,0,2,0,0,0.7118,12.041667,2,1,25.78125,15,2,0,0,0,6.5,0,0,-1849,1620,3469.639648,1024,514,0,0,0,0,0,0,0,0,NULL,NULL,NULL,NULL,NULL,NULL,NULL,NULL
10,1417759,10700,236.992996,1,0.89,108.389999,42.305023,-83.706902,10,1.55,12.088722,1365723003600,1,0.975586,-0.650391,2,0,0,0.7118,12.116667,2,1,21.375,15,2,0,0,0,5.3,0,0,-1823,1615,3439.159668,1024,664,0,0,0,0,0,0,0,0,NULL,NULL,NULL,NULL,NULL,NULL,NULL,NULL
10,1417759,10800,236.992996,1,0.89,109.269997,42.305019,-83.706886,10,1.55,12.178139,1365723003700,1,0,0.650391,2,0,0,0.6342,12.180555,2,1,20.5,15,2,0,0,0,4.4,0,0,-1772,1605,3378.199463,1024,816,0,0,0,0,0,0,0,0,NULL,NULL,NULL,NULL,NULL,NULL,NULL,NULL
10,1417759,10900,236.992996,1,0.89,109.699997,42.305016,-83.706879,10,1.55,12.311236,1365723003800,1,0,0.975586,2,0,0,0.7118,12.280556,2,1,20.6875,15,2,0,0,0,3.9,0,0,-1752,1559,3312.159668,1024,975,0,0,0,0,0,0,0,0,NULL,NULL,NULL,NULL,NULL,NULL,NULL,NULL
10,1417759,11000,236.992996,1,0.89,109.650002,42.305012,-83.706863,10,1.55,12.368792,1365723003900,1,-1.625977,-0.650391,2,0,0,0.7118,12.372222,2,1,20.5,14,2,0,0,0,4.4,0,0,-1767,1534,3301.999512,1024,1024,0,0,0,0,0,0,0,0,NULL,NULL,NULL,NULL,NULL,NULL,NULL,NULL
10,1417759,11100,236.992996,1,0.89,110.309998,42.305008,-83.706848,10,1.55,12.440222,1365723004000,1,-0.975586,-0.975586,2,0,0,0.479,12.422222,2,1,20.5,14,2,0,0,0,4.5,0,0,-1783,1478,3261.359619,1024,1024,0,0,0,0,0,0,0,0,NULL,NULL,NULL,NULL,NULL,NULL,NULL,NULL
10,1417759,11200,236.992996,1,0.89,110.25,42.305004,-83.706833,10,1.55,12.489041,1365723004100,1,-1.625977,0,2,0,0,0.5566,12.505555,2,1,20.5,14,2,0,0,0,4.5,0,0,-1762,1437,3200.399658,1024,1024,0,0,0,0,0,0,0,0,NULL,NULL,NULL,NULL,NULL,NULL,NULL,NULL
10,1417759,11300,236.992996,1,0.89,110.919998,42.305,-83.706818,10,1.55,12.638069,1365723004200,1,-0.650391,0.650391,2,0,0,0.479,12.580556,2,1,20.5,14,2,0,0,0,4.2,0,0,-1777,1402,3180.07959,1024,1024,0,0,0,0,0,0,0,0,NULL,NULL,NULL,NULL,NULL,NULL,NULL,NULL
10,1417759,11400,236.893005,1,0.89,111.540001,42.304996,-83.706802,10,1.55,12.637042,1365723004300,1,-0.975586,0,2,0,0,0.479,12.652778,2,1,20.5,14,2,0,0,0,4.8,0,0,-1625,1554,3180.079834,1024,1024,0,0,0,0,0,0,0,0,NULL,NULL,NULL,NULL,NULL,NULL,NULL,NULL
10,1417759,11500,236.893005,1,0.89,111.419998,42.304993,-83.706787,10,1.55,12.7095,1365723004400,1,-2.276367,-0.325195,2,0,0,0.4014,12.719444,2,1,20.5,14,2,0,0,0,4.4,0,0,-1671,1493,3164.8396,1024,1024,0,0,0,0,0,0,0,0,NULL,NULL,NULL,NULL,NULL,NULL,NULL,NULL
10,1417759,11600,236.893005,1,0.89,112.330002,42.304989,-83.706779,10,1.55,12.781959,1365723004500,1,-1.300781,-1.300781,2,0,0,0.4014,12.766666,2,1,20.5,14,2,0,0,0,4.7,0,0,-1747,1427,3174.999756,1024,1024,0,0,0,0,0,0,0,0,NULL,NULL,NULL,NULL,NULL,NULL,NULL,NULL
10,1417759,11700,236.893005,1,0.89,112.379997,42.304985,-83.706764,10,1.55,12.864695,1365723004600,1,-0.650391,-2.601563,2,0,0,0.4014,12.819445,2,1,20.28125,13,2,0,0,0,4.7,0,0,-1854,1381,3235.959717,1024,1024,0,0,0,0,0,0,0,0,NULL,NULL,NULL,NULL,NULL,NULL,NULL,NULL
10,1417759,11800,236.893005,1,0.89,112.989998,42.304977,-83.706749,10,1.55,12.976209,1365723004700,1,-1.625977,-1.300781,2,0,0,0.4014,12.880555,2,1,19.78125,13,2,0,0,0,4,0,0,-2189,1336,3525.519531,864,1024,0,0,0,0,0,0,0,0,NULL,NULL,NULL,NULL,NULL,NULL,NULL,NULL
10,1417759,11900,236.893005,1,0.89,113.830002,42.304974,-83.706734,10,1.55,13.007042,1365723004800,1,1.625977,1.625977,2,0,0,0.2462,12.986111,2,1,17.78125,13,2,0,0,0,4.7,0,0,-2244,1235,3479.799072,607,991,0,0,0,0,0,0,0,0,NULL,NULL,NULL,NULL,NULL,NULL,NULL,NULL
10,1417759,12000,236.893005,1,0.89,113.580002,42.30497,-83.706718,10,1.55,13.133972,1365723004900,1,0.325195,1.625977,2,0,0,0.2462,13.075,2,1,16.09375,13,2,0,0,0,3.7,0,0,-2179,1148,3327.399414,647,1023,0,0,0,0,1,0,0,0,NULL,NULL,NULL,NULL,NULL,NULL,NULL,NULL
10,1417759,12100,236.792999,1,0.89,114.75,42.304966,-83.706703,10,1.55,13.004472,1365723005000,1,0,0.325195,2,0,0,0.2462,13.105556,2,1,15.78125,13,2,0,0,0,3.7,0,0,-2179,1092,3271.519531,780,1023,0,0,0,0,1,0,0,0,NULL,NULL,NULL,NULL,NULL,NULL,NULL,NULL
10,1417759,12200,236.792999,1,0.89,114.910004,42.304958,-83.706688,10,1.55,13.165833,1365723005100,1,0,-0.975586,2,0,0,0.3238,13.180555,2,1,16,13,2,0,0,0,3.7,0,0,-2199,1082,3281.678955,871,1023,0,0,0,0,1,0,0,0,NULL,NULL,NULL,NULL,NULL,NULL,NULL,NULL
10,1417759,12300,236.792999,1,0.89,115.379997,42.304955,-83.706673,10,1.55,13.226986,1365723005200,1,-2.601563,0.650391,2,0,0,0.0134,13.222222,2,1,15.6875,12,2,0,0,0,3.3,0,0,-2214,995,3210.559326,1024,1023,0,0,0,0,1,0,0,0,NULL,NULL,NULL,NULL,NULL,NULL,NULL,NULL
10,1417759,12400,236.792999,1,0.89,115.550003,42.304947,-83.706657,10,1.55,13.262444,1365723005300,1,-0.325195,1.951172,2,0,0,0.1686,13.288889,2,1,15.6875,9,2,0,0,0,3.7,0,0,-1854,960,2814.319092,991,1023,0,0,0,0,1,0,0,0,NULL,NULL,NULL,NULL,NULL,NULL,NULL,NULL
10,1417759,12500,236.792999,1,0.89,115.470001,42.304943,-83.706642,10,1.55,13.358027,1365723005400,1,-1.300781,0,2,0,0,0.4014,13.294444,2,1,15.875,0,2,0,0,0,3.7,0,0,-2143,955,3098.799316,1024,1023,0,0,0,0,1,0,0,0,NULL,NULL,NULL,NULL,NULL,NULL,NULL,NULL
10,1417759,12600,236.792999,1,0.89,116.07,42.304939,-83.706635,10,1.55,13.295333,1365723005500,1,-0.325195,-0.975586,2,0,0,0.0134,13.341666,2,1,15.875,0,2,0,0,0,3.7,0,0,-2225,955,3180.079346,1024,1023,0,0,0,0,1,0,0,0,NULL,NULL,NULL,NULL,NULL,NULL,NULL,NULL
10,1417759,12700,236.792999,1,0.89,116.57,42.304932,-83.706619,10,1.55,13.374473,1365723005600,1,0,-0.975586,2,0,0,-0.0642,13.358334,2,1,15.875,0,2,0,0,0,3.7,0,0,-2250,1071,3322.318359,1024,1023,0,0,0,0,1,0,0,0,NULL,NULL,NULL,NULL,NULL,NULL,NULL,NULL
10,1417759,12800,236.692993,1,0.89,116.900002,42.304928,-83.706604,10,1.55,13.442306,1365723005700,1,-0.325195,-0.975586,2,0,0,-0.1418,13.333333,2,1,15.875,0,2,0,0,0,3.3,0,0,-2280,1097,3378.198242,1024,1023,0,0,0,0,1,0,0,0,NULL,NULL,NULL,NULL,NULL,NULL,NULL,NULL
10,1417759,12900,236.692993,1,0.89,117.629997,42.30492,-83.706589,10,1.55,13.501403,1365723005800,1,-0.325195,0,2,0,0,-0.1418,13.35,2,1,16.1875,0,2,0,0,0,3.9,0,0,-2062,1051,3114.038818,1024,1023,0,0,0,0,1,0,0,0,NULL,NULL,NULL,NULL,NULL,NULL,NULL,NULL
10,1417759,13000,236.692993,1,0.89,117.800003,42.304916,-83.706573,10,1.55,13.526584,1365723005900,1,0,0.975586,2,0,0,-0.2194,13.375,2,1,16.1875,2,2,0,0,0,3.7,0,0,-2113,985,3098.798584,1024,1024,0,0,0,0,1,0,0,0,NULL,NULL,NULL,NULL,NULL,NULL,NULL,NULL
10,1417759,13100,236.692993,1,0.89,117.690002,42.304909,-83.706558,10,1.55,13.424319,1365723006000,1,0,0.650391,2,0,0,-0.297,13.391666,2,1,16.1875,5,2,0,0,0,3.9,0,0,-2545,914,3459.477783,1024,1024,0,0,0,0,1,0,0,0,NULL,NULL,NULL,NULL,NULL,NULL,NULL,NULL
10,1417759,13200,236.692993,1,0.89,118.639999,42.304905,-83.706543,10,1.55,13.422778,1365723006100,1,0,-0.650391,2,0,0,-0.297,13.369445,2,1,16,6,2,0,0,0,3.9,0,0,-2514,909,3423.918457,928,1024,0,0,0,0,1,0,0,0,NULL,NULL,NULL,NULL,NULL,NULL,NULL,NULL
10,1417759,13300,236.692993,1,0.89,118.870003,42.304897,-83.706528,10,1.55,13.479305,1365723006200,1,0,-0.650391,2,0,0,-0.1418,13.369445,2,1,15.78125,7,2,0,0,0,3.7,0,0,-2539,899,3439.158447,954,1024,0,0,0,0,0,0,0,0,NULL,NULL,NULL,NULL,NULL,NULL,NULL,NULL
10,1417759,13400,236.593002,1,0.89,119.379997,42.304893,-83.706512,10,1.55,13.518361,1365723006300,1,0,1.300781,2,0,0,-0.0642,13.405556,2,1,15.59375,10,2,0,0,0,3.7,0,0,-2539,888,3428.998779,805,1024,0,0,0,0,0,0,0,0,NULL,NULL,NULL,NULL,NULL,NULL,NULL,NULL
10,1417759,13500,236.593002,1,0.89,119.459999,42.304886,-83.706505,10,1.55,13.461833,1365723006400,1,0,1.300781,2,0,0,-0.0642,13.436111,2,1,15.1875,13,2,0,0,0,3.7,0,0,-2463,873,3337.559326,666,1024,0,0,0,0,0,0,0,0,NULL,NULL,NULL,NULL,NULL,NULL,NULL,NULL
10,1417759,13600,236.593002,1,0.89,120.110001,42.304878,-83.70649,10,1.55,13.408903,1365723006500,1,-0.325195,0,2,0,0,0.1686,13.519444,2,1,14.875,14,2,0,0,0,3.8,0,0,-2555,929,3484.878174,645,1024,0,0,0,0,0,0,0,0,NULL,NULL,NULL,NULL,NULL,NULL,NULL,NULL
10,1417759,13700,236.593002,1,0.89,120.230003,42.304874,-83.706474,10,1.55,13.441792,1365723006600,1,0,0.325195,2,0,0,0.479,13.525,2,1,14.78125,15,2,0,0,0,3.4,0,0,-2524,960,3484.879395,594,1024,0,0,0,0,0,0,0,0,NULL,NULL,NULL,NULL,NULL,NULL,NULL,NULL
10,1417759,13800,236.492996,1,0.89,120.449997,42.304867,-83.706459,10,1.55,13.501917,1365723006700,1,-0.975586,0,2,0,0,0.479,13.55,2,1,14.6875,15,2,0,0,0,3.4,0,0,-2336,995,3332.478516,722,1024,0,0,0,0,0,0,0,0,NULL,NULL,NULL,NULL,NULL,NULL,NULL,NULL
10,1417759,13900,236.492996,1,0.89,121.349998,42.304859,-83.706444,10,1.55,13.620111,1365723006800,1,-0.325195,-1.951172,2,0,0,0.479,13.591666,2,1,14.6875,15,2,0,0,0,3.4,0,0,-2270,899,3169.919434,587,1024,0,0,1,0,0,0,0,0,NULL,NULL,NULL,NULL,NULL,NULL,NULL,NULL
10,1417759,14000,236.492996,1,0.89,121.040001,42.304855,-83.706429,10,1.55,13.624222,1365723006900,1,-0.650391,-0.650391,2,0,0,0.479,13.677778,2,1,14.875,15,2,0,0,0,3.4,0,0,-2245,1036,3281.679443,513,1024,0,0,0,0,0,0,0,0,NULL,NULL,NULL,NULL,NULL,NULL,NULL,NULL
10,1417759,14100,236.393005,1,0.89,121.459999,42.304848,-83.706413,10,1.55,13.789695,1365723007000,1,0.650391,0.650391,2,0,0,0.479,13.752778,2,1,14.5,15,2,0,0,0,3.5,0,0,-2265,1178,3444.239258,329,1024,0,0,0,0,0,0,0,0,NULL,NULL,NULL,NULL,NULL,NULL,NULL,NULL
10,1417759,14200,236.393005,1,0.89,121.709999,42.30484,-83.706406,10,1.55,13.74293,1365723007100,1,0,0.650391,2,0,0,0.4014,13.827778,2,1,14.6875,15,2,0,0,0,3,0,0,-2306,1193,3500.119141,159,1024,0,0,0,0,0,0,0,0,NULL,NULL,NULL,NULL,NULL,NULL,NULL,NULL
10,1417759,14300,236.393005,1,0.89,121.709999,42.304832,-83.706383,10,1.55,13.74293,1365723007225,1,0,0,2,0,0,0.479,13.877778,2,1,14.5,15,2,0,0,0,3.3,0,0,-2280,1163,3444.239258,64,1024,0,0,0,0,0,0,0,0,NULL,NULL,NULL,NULL,NULL,NULL,NULL,NULL
10,1417759,14400,236.292999,1,0.89,122.510002,42.304829,-83.706375,10,1.55,13.895041,1365723007300,1,-0.650391,-1.300781,2,0,0,0.4014,13.916667,2,1,14.59375,15,2,0,0,0,3.7,0,0,-2092,1122,3215.639648,512,1024,0,0,0,0,0,0,0,0,NULL,NULL,NULL,NULL,NULL,NULL,NULL,NULL
10,1417759,14500,236.292999,1,0.89,123.080002,42.304821,-83.70636,10,1.55,14.016319,1365723007400,1,-0.650391,0,2,0,0,0.479,14.002778,2,1,14.375,15,2,0,0,0,3.8,0,0,-2067,1031,3098.799561,992,1024,0,0,0,0,0,0,0,0,NULL,NULL,NULL,NULL,NULL,NULL,NULL,NULL
10,1417759,14600,236.292999,1,0.89,123.040001,42.304813,-83.706345,10,1.55,14.086208,1365723007500,1,0,1.625977,2,0,0,0.3238,14.069445,2,1,14.59375,15,2,0,0,0,3.3,0,0,-2057,960,3017.519775,1024,1024,0,0,0,0,0,0,0,0,NULL,NULL,NULL,NULL,NULL,NULL,NULL,NULL
10,1417759,14700,236.292999,1,0.89,123.489998,42.304806,-83.706329,10,1.55,14.129375,1365723007600,1,0,0.325195,2,0,0,0.3238,14.161111,2,1,14.09375,15,2,0,0,0,3.7,0,0,-2092,995,3088.639404,784,1024,0,0,0,0,0,0,0,0,NULL,NULL,NULL,NULL,NULL,NULL,NULL,NULL
10,1417759,14800,236.292999,1,0.89,123.82,42.304798,-83.706314,10,1.55,14.174084,1365723007700,1,0,0,2,0,0,0.4014,14.222222,2,1,11.78125,15,2,0,0,0,3.2,0,0,-2209,955,3164.839111,824,1024,0,0,0,0,1,0,0,0,NULL,NULL,NULL,NULL,NULL,NULL,NULL,NULL
10,1417759,14900,236.192993,1,0.89,124.330002,42.30479,-83.706306,10,1.55,14.258361,1365723007800,1,0,0,2,0,0,0.479,14.272223,2,1,8.09375,14,2,0,0,0,2.7,0,0,-2402,1051,3454.399414,835,1024,0,0,0,0,1,0,0,0,NULL,NULL,NULL,NULL,NULL,NULL,NULL,NULL
10,1417759,15000,236.192993,1,0.89,124.25,42.304787,-83.706291,10,1.55,14.323625,1365723007900,1,0.325195,0,2,0,0,0.479,14.341666,2,1,4.78125,14,2,0,0,0,2,0,0,-2382,858,3241.039551,1024,1024,0,0,0,0,0,0,0,0,NULL,NULL,NULL,NULL,NULL,NULL,NULL,NULL
10,1417759,15100,236.192993,1,0.89,125,42.304779,-83.706276,10,1.55,14.404819,1365723008000,1,0,0.325195,2,0,0,0.3238,14.408334,2,1,4.59375,14,2,0,0,0,1.3,0,0,-2407,792,3200.399658,1024,1024,0,0,0,0,0,0,0,0,NULL,NULL,NULL,NULL,NULL,NULL,NULL,NULL
10,1417759,15200,236.192993,1,0.89,125.019997,42.304771,-83.706261,10,1.55,14.494236,1365723008100,1,0.325195,0,2,0,0,0.479,14.441667,2,1,4.59375,14,2,0,0,0,1,0,0,-2402,731,3134.359619,1024,1024,0,0,1,0,0,0,0,0,NULL,NULL,NULL,NULL,NULL,NULL,NULL,NULL
10,1417759,15300,236.192993,1,0.89,125.019997,42.30476,-83.706245,10,1.55,14.494236,1365723008225,1,0,-0.325195,2,0,0,0.4014,14.511111,2,1,5.28125,14,2,0,0,0,1,0,0,-2387,711,3098.799805,1024,1024,0,0,1,0,0,0,0,0,NULL,NULL,NULL,NULL,NULL,NULL,NULL,NULL
10,1417759,15400,236.192993,1,0.89,125.279999,42.304756,-83.70623,10,1.55,14.595472,1365723008300,1,0,1.300781,2,0,0,0.4014,14.577778,2,1,5.5,14,2,0,0,0,1.3,0,0,-2387,670,3058.159668,784,1024,0,0,1,0,0,0,0,0,NULL,NULL,NULL,NULL,NULL,NULL,NULL,NULL
10,1417759,15500,236.192993,1,0.89,125.589996,42.304749,-83.706215,10,1.55,14.661764,1365723008400,1,1.951172,0.975586,2,0,0,0.4014,14.644444,2,1,5.28125,13,2,0,0,0,1.3,0,0,-2545,716,3261.358887,693,1024,0,0,1,0,0,0,0,0,NULL,NULL,NULL,NULL,NULL,NULL,NULL,NULL
10,1417759,15600,236.093002,1,0.89,125.010002,42.304741,-83.7062,10,1.55,14.638125,1365723008500,1,2.276367,-2.926758,2,0,0,0.1686,14.625,2,1,5.5,13,2,0,0,0,1.5,0,0,-2539,812,3352.798584,539,1024,0,0,1,0,0,0,0,0,NULL,NULL,NULL,NULL,NULL,NULL,NULL,NULL
10,1417759,15700,236.093002,1,0.89,125.940002,42.304729,-83.706184,10,1.55,14.73525,1365723008600,1,1.300781,-0.650391,2,0,0,0.479,14.7,2,1,6.59375,13,2,0,0,0,1.4,0,0,-2606,853,3459.477539,363,1024,0,0,1,0,0,0,0,0,NULL,NULL,NULL,NULL,NULL,NULL,NULL,NULL
10,1417759,15800,236.093002,1,0.89,126.190002,42.304722,-83.706177,10,1.55,14.856527,1365723008700,1,0.325195,2.601563,2,0,0,0.3238,14.830556,2,1,9.28125,13,2,0,0,0,1.7,0,0,-2656,934,3591.555908,315,1024,0,0,0,0,0,0,0,0,NULL,NULL,NULL,NULL,NULL,NULL,NULL,NULL
10,1417759,15900,236.093002,1,0.89,126.050003,42.304714,-83.706161,10,1.55,14.868347,1365723008800,1,-1.300781,1.951172,2,0,0,0.2462,14.852777,2,1,12.1875,13,2,0,0,0,2.3,0,0,-2748,934,3682.993896,252,1024,0,0,0,0,0,0,0,0,NULL,NULL,NULL,NULL,NULL,NULL,NULL,NULL
10,1417759,16000,235.992996,1,0.89,126.440002,42.304707,-83.706146,10,1.55,14.807195,1365723008900,1,-0.325195,0,2,0,0,0.2462,14.875,2,1,12.5,13,2,0,0,0,3.2,0,0,-2865,960,3825.231445,117,1024,0,0,0,0,0,0,0,0,NULL,NULL,NULL,NULL,NULL,NULL,NULL,NULL
10,1417759,16100,235.992996,1,0.89,126.059998,42.304699,-83.706131,10,1.55,14.900208,1365723009000,1,0,0,2,0,0,0.2462,14.902778,2,1,10.875,12,2,0,0,0,3.2,0,0,-2956,970,3926.829834,69,1024,0,0,0,0,0,0,0,0,NULL,NULL,NULL,NULL,NULL,NULL,NULL,NULL
10,1417759,16200,235.992996,1,0.89,126.769997,42.304691,-83.706116,10,1.55,15.014292,1365723009100,1,0.325195,0.650391,2,0,0,0.091,14.930555,2,1,8.875,12,2,0,0,0,2.9,0,0,-3246,1000,3657.599854,23,1024,0,0,0,0,1,0,0,0,NULL,NULL,NULL,NULL,NULL,NULL,NULL,NULL
10,1417759,16300,235.992996,1,0.89,126.769997,42.30468,-83.7061,10,1.55,15.014292,1365723009225,1,0,0.975586,2,0,0,0.0134,14.972222,2,1,8.78125,10,2,0,0,0,2.3,0,0,-3215,985,3657.599854,38,1024,0,0,0,0,1,0,0,0,NULL,NULL,NULL,NULL,NULL,NULL,NULL,NULL
10,1417759,16400,235.992996,1,0.89,127.160004,42.304676,-83.706085,10,1.55,15.079041,1365723009300,1,-0.650391,-0.325195,2,0,0,0.0134,14.972222,2,1,8.78125,10,2,0,0,0,2.3,0,0,-2534,934,3469.639648,192,1024,0,0,0,0,0,0,0,0,NULL,NULL,NULL,NULL,NULL,NULL,NULL,NULL
10,1417759,16500,235.992996,1,0.89,127.540001,42.304668,-83.70607,10,1.55,15.155611,1365723009400,1,-0.650391,-0.325195,2,0,0,-0.0642,14.952778,2,1,9.09375,9,2,0,0,0,2.3,0,0,-2545,960,3505.199463,302,1024,0,0,0,0,0,0,0,0,NULL,NULL,NULL,NULL,NULL,NULL,NULL,NULL
10,1417759,16600,235.992996,1,0.89,127.559998,42.304657,-83.706055,10,1.55,15.120667,1365723009500,1,0,0.650391,2,0,0,0.0134,14.991667,2,1,8.78125,9,2,0,0,0,2.3,0,0,-2484,960,3444.239502,494,1024,0,0,0,0,0,0,0,0,NULL,NULL,NULL,NULL,NULL,NULL,NULL,NULL
10,1417759,16700,235.992996,1,0.89,127.68,42.304649,-83.706039,10,1.55,15.175138,1365723009600,1,0,0.325195,2,0,0,-0.1418,15.033334,2,1,8.5,9,2,0,0,0,2.5,0,0,-2453,995,3449.31958,626,1024,0,0,0,0,0,0,0,0,NULL,NULL,NULL,NULL,NULL,NULL,NULL,NULL
10,1417759,16800,235.992996,1,0.89,128.210007,42.304642,-83.706032,10,1.55,15.091888,1365723009700,1,0,0.325195,2,0,0,-0.0642,15.044444,2,1,8.09375,9,2,0,0,0,2.5,0,0,-2179,1066,3246.119629,522,1024,0,0,0,0,0,0,0,0,NULL,NULL,NULL,NULL,NULL,NULL,NULL,NULL
10,1417759,16900,235.992996,1,0.89,128.320007,42.304634,-83.706017,10,1.55,15.174111,1365723009800,1,-0.325195,0.325195,2,0,0,0.0134,15.016666,2,1,7.5,9,2,0,0,0,2.2,0,0,-2057,1031,3088.639404,1024,1024,0,0,0,0,0,0,0,0,NULL,NULL,NULL,NULL,NULL,NULL,NULL,NULL
10,1417759,17000,235.992996,1,0.89,128.600006,42.304626,-83.706001,10,1.55,15.152528,1365723009900,1,-0.650391,0,2,0,0,0.0134,15.038889,2,1,7,9,2,0,0,0,1.8,0,0,-2062,1076,3139.439697,1024,1024,0,0,0,0,0,0,0,0,NULL,NULL,NULL,NULL,NULL,NULL,NULL,NULL
10,1417759,17100,236.093002,1,0.89,128.669998,42.304615,-83.705986,10,1.55,15.144305,1365723010000,1,-0.650391,0.650391,2,0,0,-0.0642,15.038889,2,1,6.5,9,2,0,0,0,1.9,0,0,-2255,1046,3301.999512,1024,1024,0,0,0,0,0,0,0,0,NULL,NULL,NULL,NULL,NULL,NULL,NULL,NULL
10,1417759,17200,236.093002,1,0.89,128.979996,42.304607,-83.705971,10,1.55,15.156639,1365723010100,1,-0.325195,0.325195,2,0,0,0.0134,15.055555,2,1,5.78125,9,2,0,0,0,1.9,0,0,-2230,1178,3408.679443,784,1024,0,0,0,0,0,0,0,0,NULL,NULL,NULL,NULL,NULL,NULL,NULL,NULL
10,1417759,17300,236.093002,1,0.89,128.979996,42.304596,-83.705956,10,1.55,15.156639,1365723010225,1,-0.650391,0.325195,2,0,0,0.0134,15.038889,2,1,5.5,9,2,0,0,0,1.7,0,0,-2158,1229,3388.359375,656,1024,0,0,0,0,0,0,0,0,NULL,NULL,NULL,NULL,NULL,NULL,NULL,NULL
10,1417759,17400,236.093002,1,0.89,129.360001,42.304592,-83.70594,10,1.55,15.153042,1365723010300,1,0,0.325195,2,0,0,-0.0642,15.05,2,1,5.5,9,2,0,0,0,1.7,0,0,-2082,1269,3352.799072,416,1024,0,0,0,0,0,0,0,0,NULL,NULL,NULL,NULL,NULL,NULL,NULL,NULL
10,1417759,17500,236.093002,1,0.89,129.720001,42.304581,-83.705925,10,1.55,15.196208,1365723010400,1,0,0,2,0,0,-0.0642,15.044444,2,1,5.5,9,2,0,0,0,1.5,0,0,-2037,1305,3342.63916,322,1024,0,0,0,0,0,0,0,0,NULL,NULL,NULL,NULL,NULL,NULL,NULL,NULL
10,1417759,17600,236.093002,1,0.89,129.410004,42.304573,-83.705917,10,1.55,15.118611,1365723010500,1,0.650391,-0.650391,2,0,0,-0.1418,15.052778,2,1,5.5,9,2,0,0,0,1.8,0,0,-1844,1391,3235.959717,482,1024,0,0,0,0,0,0,0,0,NULL,NULL,NULL,NULL,NULL,NULL,NULL,NULL
10,1417759,17700,236.192993,1,0.89,129.330002,42.304565,-83.705902,10,1.55,15.178736,1365723010600,1,0.325195,-0.325195,2,0,0,0.0134,15.036111,2,1,5.375,9,2,0,0,0,1.5,0,0,-1904,1305,3210.55957,546,1024,0,0,0,0,0,0,0,0,NULL,NULL,NULL,NULL,NULL,NULL,NULL,NULL
10,1417759,17800,236.192993,1,0.89,130.199997,42.304554,-83.705887,10,1.55,15.180792,1365723010700,1,0,0.650391,2,0,0,0.0134,15.055555,2,1,5.09375,10,2,0,0,0,1.8,0,0,-1777,1391,3169.919434,1024,1024,0,0,0,0,0,0,0,0,NULL,NULL,NULL,NULL,NULL,NULL,NULL,NULL
10,1417759,17900,236.192993,1,0.89,130.089996,42.304546,-83.705872,10,1.55,15.207514,1365723010800,1,-0.975586,0.325195,2,0,0,0.0134,15.072222,2,1,5.09375,10,2,0,0,0,1.5,0,0,-1757,1417,3174.999512,1024,1024,0,0,0,0,0,0,0,0,NULL,NULL,NULL,NULL,NULL,NULL,NULL,NULL
10,1417759,18000,236.292999,1,0.89,130.470001,42.304539,-83.705856,10,1.55,15.15407,1365723010900,1,-0.650391,0,2,0,0,0.0134,15.072222,2,1,4.59375,10,2,0,0,0,1.4,0,0,-1737,1417,3154.679443,1024,1024,0,0,0,0,0,0,0,0,NULL,NULL,NULL,NULL,NULL,NULL,NULL,NULL
10,1417759,18100,236.192993,1,0.89,130.300003,42.304527,-83.705841,10,1.55,15.143791,1365723011000,1,-0.975586,0.650391,2,0,0,0.0134,15.063889,2,1,3.59375,10,2,0,0,0,1.5,0,0,-1701,1407,3108.959717,1024,1024,0,0,0,0,0,0,0,0,NULL,NULL,NULL,NULL,NULL,NULL,NULL,NULL
10,1417759,18200,236.292999,1,0.89,130.339996,42.30452,-83.705833,10,1.55,15.194153,1365723011100,1,-0.325195,-0.650391,2,0,0,0.0134,15.055555,2,1,3.09375,10,2,0,0,0,1.5,0,0,-1696,1427,3124.199707,1024,1024,0,0,0,0,0,0,0,0,NULL,NULL,NULL,NULL,NULL,NULL,NULL,NULL
10,1417759,18300,236.292999,1,0.89,130.339996,42.304508,-83.705811,10,1.55,15.194153,1365723011225,1,-0.325195,-1.300781,2,0,0,-0.0642,15.05,2,1,3,10,2,0,0,0,1.2,0,0,-1701,1473,3174.999756,1024,1024,0,0,0,0,0,0,0,0,NULL,NULL,NULL,NULL,NULL,NULL,NULL,NULL
10,1417759,18400,236.292999,1,0.89,130.559998,42.304501,-83.705803,10,1.55,15.191584,1365723011300,1,0.650391,0,2,0,0,0.0134,15.075,2,1,3,10,2,0,0,0,1,0,0,-1681,1493,3174.999756,1024,1024,0,0,0,0,0,0,0,0,NULL,NULL,NULL,NULL,NULL,NULL,NULL,NULL
10,1417759,18500,236.393005,1,0.89,131.050003,42.304493,-83.705788,10,1.55,15.173083,1365723011400,1,0,0.650391,2,0,0,-0.0642,15.083333,2,1,3.1875,11,2,0,0,0,1.3,0,0,-1666,1518,3185.159668,1024,1024,0,0,0,0,0,0,0,0,NULL,NULL,NULL,NULL,NULL,NULL,NULL,NULL
10,1417759,18600,236.393005,1,0.89,130.860001,42.304485,-83.705772,10,1.55,15.165889,1365723011500,1,0.325195,0.325195,2,0,0,0.0134,15.133333,2,1,3.28125,11,2,0,0,0,1,0,0,-1645,1518,3164.8396,1024,1024,0,0,0,0,0,0,0,0,NULL,NULL,NULL,NULL,NULL,NULL,NULL,NULL
10,1417759,18700,236.393005,1,0.89,130.869995,42.304474,-83.705757,10,1.55,15.150473,1365723011600,1,0,0,2,0,0,0.091,15.111111,2,1,3,11,2,0,0,0,1,0,0,-1635,1534,3169.919434,1024,1024,0,0,0,0,0,0,0,0,NULL,NULL,NULL,NULL,NULL,NULL,NULL,NULL
10,1417759,18800,236.492996,1,0.89,131.360001,42.304466,-83.70575,10,1.55,15.228069,1365723011700,1,-0.325195,0.650391,2,0,0,0.1686,15.125,2,1,3,11,2,0,0,0,1.2,0,0,-1630,1529,3159.759766,1024,1024,0,0,0,0,0,0,0,0,NULL,NULL,NULL,NULL,NULL,NULL,NULL,NULL
10,1417759,18900,236.492996,1,0.89,131.509995,42.304459,-83.705734,10,1.55,15.219334,1365723011800,1,-0.325195,-0.325195,2,0,0,0.0134,15.147223,2,1,3,11,2,0,0,0,0.9,0,0,-1615,1539,3154.679443,1024,1024,0,0,0,0,0,0,0,0,NULL,NULL,NULL,NULL,NULL,NULL,NULL,NULL
10,1417759,19000,236.492996,1,0.89,131.330002,42.304447,-83.705719,10,1.55,15.246056,1365723011900,1,-0.325195,0,2,0,0,0.1686,15.158334,2,1,2.6875,11,2,0,0,0,0.8,0,0,-1635,1534,3169.919434,1024,1024,0,0,0,0,0,0,0,0,NULL,NULL,NULL,NULL,NULL,NULL,NULL,NULL
10,1417759,19100,236.492996,1,0.89,131.270004,42.30444,-83.705704,10,1.55,15.205459,1365723012000,1,0,0,2,0,0,0.091,15.180555,2,1,2.59375,11,2,0,0,0,0.9,0,0,-1650,1529,3180.079834,1024,1024,0,0,0,0,0,0,0,0,NULL,NULL,NULL,NULL,NULL,NULL,NULL,NULL
10,1417759,19200,236.393005,1,0.89,131.630005,42.304428,-83.705688,10,1.55,15.294875,1365723012100,1,-0.325195,0,2,0,0,0.0134,15.2,2,1,2.28125,11,2,0,0,0,0.9,0,0,-1666,1503,3169.919678,1024,1024,0,0,0,0,0,0,0,0,NULL,NULL,NULL,NULL,NULL,NULL,NULL,NULL
10,1417759,19300,236.492996,1,0.89,131.729996,42.30442,-83.705673,10,1.55,15.300014,1365723012200,1,0,0.650391,2,0,0,0.2462,15.25,2,1,1.5,11,2,0,0,0,0.9,0,0,-1671,1483,3154.679443,1024,1024,0,0,0,0,0,0,0,0,NULL,NULL,NULL,NULL,NULL,NULL,NULL,NULL
10,1417759,19400,236.393005,1,0.89,131.929993,42.304413,-83.705666,10,1.55,15.272778,1365723012300,1,0,-0.650391,2,0,0,0.0134,15.244445,2,1,0.28125,11,2,0,0,0,0.5,0,0,-1711,1493,3205.479248,1024,1024,0,0,0,0,0,0,0,0,NULL,NULL,NULL,NULL,NULL,NULL,NULL,NULL
10,1417759,19500,236.492996,1,0.89,131.839996,42.304401,-83.70565,10,1.55,15.365791,1365723012400,1,0,-0.325195,2,0,0,0.1686,15.241667,2,1,-0.5,11,2,0,0,0,0.5,0,0,-1732,1498,3230.87915,1024,1024,0,0,0,0,0,0,0,0,NULL,NULL,NULL,NULL,NULL,NULL,NULL,NULL
10,1417759,19600,236.393005,1,0.89,131.949997,42.304394,-83.705635,10,1.55,15.345236,1365723012500,1,0,0.325195,2,0,0,0.091,15.280556,2,1,-0.5,11,2,0,0,0,0.2,0,0,-1727,1483,3210.55957,1024,1024,0,0,0,0,0,0,0,0,NULL,NULL,NULL,NULL,NULL,NULL,NULL,NULL
10,1417759,19700,236.492996,1,0.89,132.279999,42.304382,-83.70562,10,1.55,15.377097,1365723012600,1,0,0,2,0,0,0.091,15.3,2,1,-0.78125,6,2,0,0,0,0.2,0,0,-1732,1473,3205.479492,1024,1024,0,0,0,0,0,0,0,0,NULL,NULL,NULL,NULL,NULL,NULL,NULL,NULL
10,1417759,19800,236.492996,1,0.89,132.070007,42.304375,-83.705605,10,1.55,15.376069,1365723012700,1,0.325195,0,2,0,0,0.0134,15.216666,2,1,-0.59375,0,2,0,0,0,0.3,0,0,-1747,1452,3200.399658,1024,1024,0,0,0,0,0,0,0,0,NULL,NULL,NULL,NULL,NULL,NULL,NULL,NULL
10,1417759,19900,236.492996,1,0.89,131.899994,42.304363,-83.705597,10,1.55,15.4105,1365723012800,1,0.325195,0,2,0,0,-0.1418,15.347222,2,1,-0.6875,0,2,0,0,0,0.2,0,0,-1767,1412,3180.07959,1008,1024,0,0,0,0,0,0,0,0,NULL,NULL,NULL,NULL,NULL,NULL,NULL,NULL
10,1417759,20000,236.492996,1,0.89,132.220001,42.304356,-83.705582,10,1.55,15.425917,1365723012900,1,0.325195,0,2,0,0,-0.1418,15.252778,2,1,-0.6875,0,2,0,0,0,0,0,0,-1793,1412,3205.479248,1024,1024,0,0,0,0,0,0,0,0,NULL,NULL,NULL,NULL,NULL,NULL,NULL,NULL
10,1417759,20100,236.492996,1,0.89,131.970001,42.304348,-83.705566,10,1.55,15.389944,1365723013000,1,0.325195,-0.325195,2,0,0,-0.2194,15.244445,2,1,-0.875,0,2,0,0,0,0,0,0,-1808,1396,3205.479492,1024,1024,0,0,0,0,0,0,0,0,NULL,NULL,NULL,NULL,NULL,NULL,NULL,NULL
10,1417759,20200,236.492996,1,0.89,132.630005,42.304337,-83.705551,10,1.55,15.450069,1365723013100,1,0,0,2,0,0,-0.1418,15.238889,2,1,-0.6875,0,2,0,0,0,0.3,0,0,-1828,1402,3230.87915,1024,1008,0,0,0,0,0,0,0,0,NULL,NULL,NULL,NULL,NULL,NULL,NULL,NULL
10,1417759,20300,236.492996,1,0.89,132.169998,42.304329,-83.705536,10,1.55,15.402278,1365723013200,1,0,0,2,0,0,-0.297,15.216666,2,1,-0.6875,0,2,0,0,0,0.3,0,0,-1844,1366,3210.55957,1024,1024,0,0,0,0,0,0,0,0,NULL,NULL,NULL,NULL,NULL,NULL,NULL,NULL
10,1417759,20400,236.593002,1,0.89,132.220001,42.304317,-83.705528,10,1.55,15.380694,1365723013300,1,0,0.650391,2,0,0,-0.2194,15.188889,2,1,-0.875,0,2,0,0,0,0.4,0,0,-1854,1336,3190.239502,1024,1024,0,0,0,0,0,0,0,0,NULL,NULL,NULL,NULL,NULL,NULL,NULL,NULL
10,1417759,20500,236.492996,1,0.89,132.169998,42.30431,-83.705513,10,1.55,15.3365,1365723013400,1,0.325195,-0.325195,2,0,0,-0.3746,15.138889,2,1,-0.875,0,2,0,0,0,0.3,0,0,-1869,1320,3190.239502,1024,1024,0,0,0,0,0,0,0,0,NULL,NULL,NULL,NULL,NULL,NULL,NULL,NULL
10,1417759,20600,236.593002,1,0.89,132.350006,42.304298,-83.705498,10,1.55,15.326222,1365723013500,1,-0.325195,-2.276367,2,0,0,-0.3746,15.027778,2,1,-0.6875,0,2,0,0,0,0.3,0,0,-1920,1310,3230.879395,1024,1024,0,0,0,0,0,0,0,0,NULL,NULL,NULL,NULL,NULL,NULL,NULL,NULL
10,1417759,20700,236.593002,1,0.89,132.360001,42.304291,-83.705482,10,1.55,15.300528,1365723013600,1,0,0,2,0,0,-0.3746,14.997222,2,1,-0.6875,0,2,0,0,0,0.5,0,0,-2026,1275,3301.998779,928,1024,0,0,0,0,0,0,0,0,NULL,NULL,NULL,NULL,NULL,NULL,NULL,NULL
10,1417759,20800,236.593002,1,0.89,132.259995,42.304279,-83.705467,10,1.55,15.381208,1365723013700,1,-0.325195,1.300781,2,0,0,-0.2194,15.080556,2,1,-0.6875,0,2,0,0,0,0.3,0,0,-2448,1219,3667.759766,881,1024,0,0,0,0,0,0,0,0,NULL,NULL,NULL,NULL,NULL,NULL,NULL,NULL
10,1417759,20900,236.593002,1,0.89,132.220001,42.304272,-83.705452,10,1.55,15.227555,1365723013800,1,0,0,2,0,0,-0.4522,15.080556,2,1,-0.6875,0,2,0,0,0,0.3,0,0,-2468,1203,3672.8396,785,1024,0,0,0,0,0,0,0,0,NULL,NULL,NULL,NULL,NULL,NULL,NULL,NULL
10,1417759,21000,236.593002,1,0.89,132.350006,42.304264,-83.705444,10,1.55,15.195181,1365723013900,1,0,-0.650391,2,0,0,-0.4522,14.977777,2,1,-0.6875,0,2,0,0,0,0.3,0,0,-2504,1173,3677.919189,528,1004,0,0,0,0,0,0,0,0,NULL,NULL,NULL,NULL,NULL,NULL,NULL,NULL
10,1417759,21100,236.593002,1,0.89,132.320007,42.304253,-83.705429,10,1.55,15.167431,1365723014000,1,1.300781,-0.325195,2,0,0,-0.4522,14.980556,2,1,-0.6875,0,2,0,0,0,0,0,0,-2052,1148,3200.398926,386,1024,0,0,0,0,0,0,0,0,NULL,NULL,NULL,NULL,NULL,NULL,NULL,NULL
10,1417759,21200,236.593002,1,0.89,132.300003,42.304245,-83.705414,10,1.55,15.147388,1365723014100,1,0.650391,0,2,0,0,-0.6074,14.966666,2,1,-0.6875,0,2,0,0,0,0,0,0,-2042,1112,3154.678711,146,1024,0,0,0,0,0,0,0,0,NULL,NULL,NULL,NULL,NULL,NULL,NULL,NULL
10,1417759,21300,236.593002,1,0.89,132.300003,42.304234,-83.705399,10,1.55,15.147388,1365723014225,1,0.325195,0.325195,2,0,0,-0.6074,14.861111,2,1,-0.6875,0,2,0,0,0,0.4,0,0,-2291,1102,3393.439209,114,1024,0,0,0,0,0,0,0,0,NULL,NULL,NULL,NULL,NULL,NULL,NULL,NULL
10,1417759,21400,236.692993,1,0.89,132.800003,42.304226,-83.705391,10,1.55,15.090347,1365723014300,1,0,0,2,0,0,-0.4522,14.85,2,1,-0.6875,0,2,0,0,0,0.4,0,0,-2296,1066,3362.959229,128,1024,0,0,0,0,0,0,0,0,NULL,NULL,NULL,NULL,NULL,NULL,NULL,NULL
10,1417759,21500,236.692993,1,0.89,132.800003,42.304226,-83.705391,10,1.55,15.035875,1365723014400,1,0,-0.650391,          ,          ,0,NULL,NULL,NULL,NULL,NULL,0,          ,0,0,0,NULL,0,0,-2306,1082,3388.359375,319,1024,0,0,0,0,0,0,0,0,NULL,NULL,NULL,NULL,NULL,NULL,NULL,NULL
10,1417759,21600,236.692993,1,0.89,132.580002,42.304207,-83.70536,10,1.55,14.935667,1365723014500,1,0.325195,-0.325195,2,0,0,-0.685,14.85,2,1,-0.6875,0,2,0,0,0,0.7,0,0,-2341,1076,3418.839111,507,1024,0,0,0,0,0,0,0,0,NULL,NULL,NULL,NULL,NULL,NULL,NULL,NULL
10,1417759,21700,236.692993,1,0.89,132.300003,42.304199,-83.705345,10,1.55,14.916139,1365723014600,1,0.650391,0,2,0,0,-0.4522,14.738889,2,1,-0.6875,0,2,0,0,0,0.5,0,0,-2092,1097,3190.239502,505,1024,0,0,0,0,0,0,0,0,NULL,NULL,NULL,NULL,NULL,NULL,NULL,NULL
10,1417759,21800,236.692993,1,0.89,132.570007,42.304188,-83.705338,10,1.55,14.93875,1365723014700,1,0.650391,0,2,0,0,-0.4522,14.719444,2,1,-0.6875,0,2,0,0,0,0.3,0,0,-2153,1066,3220.719727,313,1024,0,0,0,0,0,0,0,0,NULL,NULL,NULL,NULL,NULL,NULL,NULL,NULL
10,1417759,21900,236.692993,1,0.89,132.520004,42.30418,-83.705322,10,1.55,14.847278,1365723014800,1,0,0,2,0,0,-0.4522,14.722222,2,1,-0.59375,1,2,0,0,0,0.4,0,0,-2164,878,3042.918945,256,1024,0,0,1,0,0,0,0,0,NULL,NULL,NULL,NULL,NULL,NULL,NULL,NULL
10,1417759,22000,236.792999,1,0.89,132.699997,42.304173,-83.705307,10,1.55,14.813875,1365723014900,1,-0.325195,0,2,0,0,-0.297,14.702778,2,1,-0.28125,2,2,0,0,0,0.3,0,0,-2204,848,3053.079102,992,1024,0,0,1,0,0,0,0,0,NULL,NULL,NULL,NULL,NULL,NULL,NULL,NULL
10,1417759,22100,236.792999,1,0.89,132.660004,42.304161,-83.705292,10,1.55,14.802055,1365723015000,1,0.325195,0,2,0,0,-0.3746,14.652778,2,1,0.6875,2,2,0,0,0,0.5,0,0,-2189,863,3053.07959,1024,1024,0,0,1,0,0,0,0,0,NULL,NULL,NULL,NULL,NULL,NULL,NULL,NULL
10,1417759,22200,236.792999,1,0.89,132.410004,42.304153,-83.705284,10,1.55,14.700306,1365723015100,1,-0.325195,0,2,0,0,-0.297,14.633333,2,1,2.09375,3,2,0,0,0,1,0,0,-2250,828,3078.479492,1024,1024,0,0,1,0,0,0,0,0,NULL,NULL,NULL,NULL,NULL,NULL,NULL,NULL
10,1417759,22300,236.792999,1,0.89,132.410004,42.304142,-83.705269,10,1.55,14.700306,1365723015225,1,0.325195,0.325195,2,0,0,-0.2194,14.627778,2,1,3,4,2,0,0,0,0.9,0,0,-2255,792,3047.999756,1024,1024,0,0,1,0,0,0,0,0,NULL,NULL,NULL,NULL,NULL,NULL,NULL,NULL
10,1417759,22400,236.792999,1,0.89,132.759995,42.304134,-83.705254,10,1.55,14.684375,1365723015300,1,0,0.650391,2,0,0,-0.297,14.722222,2,1,3.28125,5,2,0,0,0,0.8,0,0,-2260,746,3007.359375,1024,1024,0,0,1,0,0,0,0,0,NULL,NULL,NULL,NULL,NULL,NULL,NULL,NULL
10,1417759,22500,236.792999,1,0.89,132.880005,42.304127,-83.705246,10,1.55,14.648403,1365723015400,1,0,0.650391,2,0,0,-0.3746,14.563889,2,1,3.5,5,2,0,0,0,1.3,0,0,-2301,690,2992.119629,1024,1024,0,0,1,0,0,0,0,0,NULL,NULL,NULL,NULL,NULL,NULL,NULL,NULL
10,1417759,22600,236.792999,1,0.89,132.850006,42.304115,-83.705231,10,1.55,14.640181,1365723015500,1,-0.325195,-0.325195,2,0,0,-0.297,14.555555,2,1,4.09375,0,2,0,0,0,1,0,0,-2346,624,2971.799561,1024,1024,0,0,1,0,0,0,0,0,NULL,NULL,NULL,NULL,NULL,NULL,NULL,NULL
10,1417759,22700,236.792999,1,0.89,133.350006,42.304108,-83.705215,10,1.55,14.677694,1365723015600,1,0,-0.325195,2,0,0,-0.297,14.527778,2,1,5.59375,0,2,0,0,0,1.3,0,0,-2448,574,3022.599609,1024,1024,0,0,1,0,0,0,0,0,NULL,NULL,NULL,NULL,NULL,NULL,NULL,NULL
10,1417759,22800,236.792999,1,0.89,133.059998,42.3041,-83.7052,10,1.55,14.628875,1365723015700,1,0.325195,0.325195,2,0,0,-0.2194,14.483334,2,1,5.59375,0,2,0,0,0,1.7,0,0,-2484,507,2992.119629,1024,1024,0,0,1,0,0,0,0,0,NULL,NULL,NULL,NULL,NULL,NULL,NULL,NULL
10,1417759,22900,236.792999,1,0.89,133.440002,42.304089,-83.705193,10,1.55,14.617056,1365723015800,1,-0.325195,0,2,0,0,-0.3746,14.408334,2,1,5.78125,0,2,0,0,0,1.5,0,0,-2504,447,2951.479492,1024,1024,0,0,1,0,0,0,0,0,NULL,NULL,NULL,NULL,NULL,NULL,NULL,NULL
10,1417759,23100,236.792999,1,0.89,133.539993,42.304073,-83.705162,10,1.55,14.592389,1365723016000,1,0,0,2,0,0,-0.4522,14.352777,2,1,6.875,0,2,0,0,0,1.7,0,0,-2555,350,2905.759521,1024,1024,0,0,1,0,0,0,0,0,NULL,NULL,NULL,NULL,NULL,NULL,NULL,NULL
10,1417759,23200,236.893005,1,0.89,133.580002,42.304062,-83.705154,10,1.55,14.486527,1365723016100,1,-0.325195,0.650391,2,0,0,-0.4522,14.394444,2,1,8.6875,0,2,0,0,0,1.8,0,0,-2580,294,2875.279541,1024,1024,0,0,1,0,0,0,0,0,NULL,NULL,NULL,NULL,NULL,NULL,NULL,NULL
